[{"variableName":"Cairo, Egitto","latitude":30.044281,"longitude":31.340002,"jsobject":{}},
  {"variableName":"Tripoli, Libya","latitude":32.885353,"longitude":13.180161,"jsobject":{}},
  {"variableName":"Koupa, Algeria","latitude":36.726017,"longitude":3.082667,"jsobject":{}},
  {"variableName":"Dakar, Senegal","latitude":14.6937,"longitude":-17.44406,"jsobject":{}},
  {"variableName":"Marrakesh, Morocco","latitude":31.669746,"longitude":-7.973328,"jsobject":{}},
  {"variableName":"Bamako, Mali","latitude":12.65,"longitude":-8,"jsobject":{}},
  {"variableName":"Abuja, Nigeria","latitude":9.072264,"longitude":7.491302,"jsobject":{}},
  {"variableName":"Khartoum, Sudan","latitude":15.564836,"longitude":32.529831,"jsobject":{}},
  {"variableName":"Yaounde, Cameroon","latitude":3.86667,"longitude":11.51667,"jsobject":{}},
  {"variableName":"Addis Ababa, Ethiopia","latitude":9.005401,"longitude":38.763611,"jsobject":{}},
  {"variableName":"Nairobi, Kenya","latitude":-1.28333,"longitude":36.81667,"jsobject":{}},
  {"variableName":"Dodoma, Tanzania","latitude": -6.161184,"longitude":35.745426,"jsobject":{}},
  {"variableName":"Libreville, Gabon","latitude":0.390100,"longitude":9.454400,"jsobject":{}},
  {"variableName":"Kinshasa, Congo","latitude":-4.322447,"longitude":15.307045,"jsobject":{}},
  {"variableName":"Kananga, Congo","latitude":-5.89624,"longitude":22.41659,"jsobject":{}},
  {"variableName":"Windhoek, Namibia","latitude":-22.601255,"longitude":17.092333,"jsobject":{}},
  {"variableName":"Maputo, Monzambique","latitude":-25.953724,"longitude":32.588711,"jsobject":{}},
  {"variableName":"Harare, Zimbabwe","latitude":-17.824858,"longitude":31.053028,"jsobject":{}},
  {"variableName":"Johannesburg, South Africa","latitude":-26.195246,"longitude":28.034088,"jsobject":{}},
  {"variableName":"Anatananarivo, Madagascar","latitude":-18.9333,"longitude":47.5167,"jsobject":{}},
  {"variableName":"Kampala, Uganda","latitude":0.347596,"longitude":32.582520,"jsobject":{}},
  {"variableName":"Tunis, Tunisia","latitude":36.81897,"longitude":10.16579,"jsobject":{}},
{"variableName":"Mogadishu, Somalia","latitude":2.046934,"longitude":45.318161,"jsobject":{}}]